{"version": 0.6, "generator": "Overpass API 0.7.62.8 e802775f", "osm3s": {"timestamp_osm_base": "2026-01-20T03:08:58Z", "copyright": "The data included in this document is from www.openstreetmap.org. The data is made available under ODbL."}, "elements": [{"type": "node", "id": 9572982923, "lat": 29.8609554, "lon": 119.9623801, "tags": {"information": "guidepost", "tourism": "information"}}, {"type": "node", "id": 12438151008, "lat": 29.8262714, "lon": 120.04923, "tags": {"name": "\u60ac\u5d16\u94c1\u7d22\uff08\u77f3\u5854\u6a2a\u8def\uff09", "tourism": "viewpoint"}}, {"type": "node", "id": 12565498395, "lat": 29.7154312, "lon": 120.0219394, "tags": {"name": "\u6c88\u5bb6\u7eb1\u5e3d\u5c71", "tourism": "attraction"}}, {"type": "node", "id": 12819255071, "lat": 29.8116051, "lon": 119.9442738, "tags": {"name": "\u5bcc\u9633\u9f99\u9cde\u575d", "tourism": "viewpoint", "wikimedia_commons": "File:Longlingba.jpg"}}, {"type": "node", "id": 12819260456, "lat": 29.7859423, "lon": 119.9459856, "tags": {"name": "\u5bcc\u9633\u53cc\u575d\u575d", "tourism": "viewpoint"}}, {"type": "node", "id": 12819285500, "lat": 29.8171151, "lon": 119.943686, "tags": {"name": "\u5bcc\u9633\u6885\u5dde\u575d", "tourism": "viewpoint"}}, {"type": "node", "id": 12819296245, "lat": 29.7691201, "lon": 119.9563696, "tags": {"description": "\u5173\u4e8e\u9732\u8425\uff0c\u665a\u4e0a\u6709\u4eba\u6765\u8d76 \u8bf48\u70b9\u540e\u6cb3\u5cb8\u4e0d\u80fd\u6709\u706f\uff0c\u6709\u76d1\u63a7\uff0c\u8fc7\u591c\u53ef\u4ee5\u53bb\u5927\u793c\u5802\u90a3\u8fb9\u30022025.8.31", "name": "\u5bcc\u9633\u540c\u5fc3\u575d", "tourism": "viewpoint"}}, {"type": "node", "id": 12819296369, "lat": 29.7918548, "lon": 119.9478395, "tags": {"name": "\u5bcc\u9633\u83b2\u82b1\u575d", "tourism": "viewpoint"}}, {"type": "node", "id": 12819301681, "lat": 29.8032005, "lon": 119.9464906, "tags": {"name": "\u5bcc\u9633\u6728\u5854\u575d", "tourism": "viewpoint"}}, {"type": "node", "id": 12819306062, "lat": 29.8429308, "lon": 119.9160138, "tags": {"name": "\u5bcc\u9633\u6cb8\u817e\u575d", "tourism": "viewpoint"}}, {"type": "node", "id": 12820295154, "lat": 29.8584935, "lon": 119.9126015, "tags": {"name": "\u5bcc\u9633\u53e4\u57ce\u5830\u575d", "tourism": "viewpoint"}}, {"type": "node", "id": 12820389792, "lat": 29.8232047, "lon": 119.9343056, "tags": {"name": "\u5bcc\u9633\u77f3\u4ea9\u53e3\u5830\u575d", "tourism": "viewpoint"}}, {"type": "node", "id": 13061842741, "lat": 29.8099856, "lon": 119.951276, "tags": {"name": "\u65b0\u4e09\u6751\u8f66\u9732\u70b9", "tourism": "camp_site"}}, {"type": "node", "id": 13061842742, "lat": 29.811615, "lon": 119.9407884, "tags": {"name": "\u9f99\u9cde\u575d\u8f66\u9732\u70b9", "tourism": "camp_site"}}, {"type": "node", "id": 13061948897, "lat": 29.7711494, "lon": 119.9640577, "tags": {"name": "\u5bcc\u9633\u56de\u9f99\u575d", "tourism": "viewpoint"}}, {"type": "node", "id": 13061948899, "lat": 29.7489453, "lon": 119.9603495, "tags": {"name": "\u8bf8\u66a8\u6eaa\u897f\u73a9\u6c34\u70b9", "tourism": "viewpoint"}}, {"type": "node", "id": 13068197256, "lat": 29.7647228, "lon": 119.8170365, "tags": {"name": "\u6850\u5e90\u9ad8\u5bb6\u575d", "tourism": "viewpoint"}}, {"type": "node", "id": 13069060424, "lat": 29.8196068, "lon": 119.9449342, "tags": {"fee": "no", "name": "\u5bcc\u9633\u53cc\u559c\u9732\u8425\u70b9", "tourism": "camp_site"}}, {"type": "node", "id": 13087068709, "lat": 29.7947972, "lon": 119.9428909, "tags": {"name": "\u5bcc\u9633\u4e0a\u81e7\u575d", "tourism": "viewpoint"}}, {"type": "node", "id": 13087068710, "lat": 29.7948764, "lon": 119.9399963, "tags": {"name": "\u5bcc\u9633\u5c0f\u9f99\u9cde\u575d", "tourism": "viewpoint"}}, {"type": "node", "id": 13087068711, "lat": 29.7977497, "lon": 119.9422892, "tags": {"name": "\u5bcc\u9633\u7533\u6e21\u575d", "tourism": "viewpoint"}}, {"type": "node", "id": 13087068712, "lat": 29.7487116, "lon": 119.9628698, "tags": {"name": "\u8bf8\u66a8\u5c0f\u9f99\u9cde\u575d", "tourism": "viewpoint"}}, {"type": "node", "id": 13089314629, "lat": 29.8601667, "lon": 119.969243, "tags": {"name": "\u674f\u6885\u5c16\u8425\u5730", "tourism": "camp_site"}}, {"type": "node", "id": 13096296935, "lat": 29.8463957, "lon": 120.0347214, "tags": {"name": "\u4ed9\u4eba\u6f6d", "tourism": "viewpoint", "wikimedia_commons": "File:Xianrentan.jpg"}}, {"type": "node", "id": 13100643955, "lat": 29.7405655, "lon": 120.0417478, "tags": {"name": "\u523b\u7f15\u7011", "tourism": "viewpoint"}}, {"type": "node", "id": 13100643957, "lat": 29.7421343, "lon": 120.0420172, "tags": {"name": "\u897f\u9f99\u6f6d", "tourism": "viewpoint"}}, {"type": "node", "id": 13100643959, "lat": 29.7346187, "lon": 120.0470902, "tags": {"name": "\u4e94\u6cc4\u7985\u5bfa", "tourism": "viewpoint"}}, {"type": "node", "id": 13129988244, "lat": 29.8149624, "lon": 120.0554943, "tags": {"name": "\u547c\u72d7\u5d16", "tourism": "viewpoint"}}, {"type": "node", "id": 13158908408, "lat": 29.7557483, "lon": 119.9596015, "tags": {"name": "\u91d1\u6c99\u89c2\u666f\u53f0", "tourism": "viewpoint"}}, {"type": "node", "id": 13162459953, "lat": 29.7702692, "lon": 120.080798, "tags": {"name": "\u6c81\u5fc3\u4ead\u6751\u90e8\u89c2\u666f\u53f0", "tourism": "viewpoint"}}, {"type": "node", "id": 13188305239, "lat": 29.7373025, "lon": 120.0470791, "tags": {"name": "\u7b2c\u4e94\u6cc4", "tourism": "viewpoint"}}, {"type": "node", "id": 13260669868, "lat": 29.8251057, "lon": 120.0505293, "tags": {"name": "\u89c2\u666f\u5e73\u53f0", "tourism": "viewpoint"}}, {"type": "node", "id": 13273575401, "lat": 29.8166679, "lon": 120.0617398, "tags": {"amenity": "cafe", "name:en": "Shen coffee"}}, {"type": "node", "id": 13273575402, "lat": 29.8114137, "lon": 120.1115848, "tags": {"amenity": "cafe", "name:en": "Cotti coffee"}}, {"type": "node", "id": 13273575501, "lat": 29.8153323, "lon": 120.0615212, "tags": {"amenity": "cafe", "name:en": "coffee"}}]}